{
   "resposta": [
     {
       "stop_id": "AM",
       "stop_name": "Alameda",
       "stop_lat": "38.7373",
       "stop_lon": "-9.13409",
       "stop_url": "[https://www.metrolisboa.pt/viajar/alameda-linha-verde/,https://www.metrolisboa.pt/viajar/alameda-linha-vermelha/]",
       "linha": "[Verde, Vermelha]",
       "zone_id": "L"
     },
     {
       "stop_id": "AF",
       "stop_name": "Alfornelos",
       "stop_lat": "38.7606",
       "stop_lon": "-9.20471",
       "stop_url": "[https://www.metrolisboa.pt/viajar/alfornelos/]",
       "linha": "[Azul]",
       "zone_id": "C"
     },
     {
       "stop_id": "AH",
       "stop_name": "Alto dos Moinhos",
       "stop_lat": "38.7496",
       "stop_lon": "-9.17995",
       "stop_url": "[https://www.metrolisboa.pt/viajar/alto-dos-moinhos/]",
       "linha": "[Azul]",
       "zone_id": "L"
     },
     {
       "stop_id": "AL",
       "stop_name": "Alvalade",
       "stop_lat": "38.7535",
       "stop_lon": "-9.14388",
       "stop_url": "[https://www.metrolisboa.pt/viajar/alvalade/]",
       "linha": "[Verde]",
       "zone_id": "L"
     },
     {
       "stop_id": "AS",
       "stop_name": "Amadora Este",
       "stop_lat": "38.7584",
       "stop_lon": "-9.21917",
       "stop_url": "[https://www.metrolisboa.pt/viajar/amadora-este/]",
       "linha": "[Azul]",
       "zone_id": "C"
     },
     {
       "stop_id": "AX",
       "stop_name": "Ameixoeira",
       "stop_lat": "38.7799",
       "stop_lon": "-9.15999",
       "stop_url": "[https://www.metrolisboa.pt/viajar/ameixoeira/]",
       "linha": "[Amarela]",
       "zone_id": "L"
     },
     {
       "stop_id": "AN",
       "stop_name": "Anjos",
       "stop_lat": "38.7266",
       "stop_lon": "-9.13503",
       "stop_url": "[https://www.metrolisboa.pt/viajar/anjos/]",
       "linha": "[Verde]",
       "zone_id": "L"
     },
     {
       "stop_id": "AE",
       "stop_name": "Areeiro",
       "stop_lat": "38.7426",
       "stop_lon": "-9.13381",
       "stop_url": "[https://www.metrolisboa.pt/viajar/areeiro/]",
       "linha": "[Verde]",
       "zone_id": "L"
     },
     {
       "stop_id": "AR",
       "stop_name": "Arroios",
       "stop_lat": "38.7335",
       "stop_lon": "-9.13445",
       "stop_url": "[https://www.metrolisboa.pt/viajar/arroios/]",
       "linha": "[Verde]",
       "zone_id": "L"
     },
     {
       "stop_id": "AV",
       "stop_name": "Avenida",
       "stop_lat": "38.7201",
       "stop_lon": "-9.14582",
       "stop_url": "[https://www.metrolisboa.pt/viajar/avenida/]",
       "linha": "[Azul]",
       "zone_id": "L"
     },
     {
       "stop_id": "BC",
       "stop_name": "Baixa/Chiado",
       "stop_lat": "38.7107",
       "stop_lon": "-9.13909",
       "stop_url": "[https://www.metrolisboa.pt/viajar/baixa-chiado-linha-azul/,https://www.metrolisboa.pt/viajar/baixa-chiado-linha-verde/]",
       "linha": "[Azul, Verde]",
       "zone_id": "L"
     },
     {
       "stop_id": "BV",
       "stop_name": "Bela Vista",
       "stop_lat": "38.7477",
       "stop_lon": "-9.11855",
       "stop_url": "[https://www.metrolisboa.pt/viajar/bela-vista/]",
       "linha": "[Vermelha]",
       "zone_id": "L"
     },
     {
       "stop_id": "CR",
       "stop_name": "Cabo Ruivo",
       "stop_lat": "38.7632",
       "stop_lon": "-9.10409",
       "stop_url": "[https://www.metrolisboa.pt/viajar/cabo-ruivo/]",
       "linha": "[Vermelha]",
       "zone_id": "L"
     },
     {
       "stop_id": "CS",
       "stop_name": "Cais do Sodré",
       "stop_lat": "38.7062",
       "stop_lon": "-9.14503",
       "stop_url": "[https://www.metrolisboa.pt/viajar/cais-do-sodre/]",
       "linha": "[Verde]",
       "zone_id": "L"
     },
     {
       "stop_id": "CG",
       "stop_name": "Campo Grande",
       "stop_lat": "38.7599",
       "stop_lon": "-9.15794",
       "stop_url": "[https://www.metrolisboa.pt/viajar/campo-grande-linha-amarela/,https://www.metrolisboa.pt/viajar/campo-grande-linha-verde/]",
       "linha": "[Amarela, Verde]",
       "zone_id": "L"
     },
     {
       "stop_id": "CP",
       "stop_name": "Campo Pequeno",
       "stop_lat": "38.7414",
       "stop_lon": "-9.14703",
       "stop_url": "[https://www.metrolisboa.pt/viajar/campo-pequeno/]",
       "linha": "[Amarela]",
       "zone_id": "L"
     },
     {
       "stop_id": "CA",
       "stop_name": "Carnide",
       "stop_lat": "38.7593",
       "stop_lon": "-9.19281",
       "stop_url": "[https://www.metrolisboa.pt/viajar/carnide/]",
       "linha": "[Azul]",
       "zone_id": "L"
     },
     {
       "stop_id": "CH",
       "stop_name": "Chelas",
       "stop_lat": "38.7553",
       "stop_lon": "-9.11414",
       "stop_url": "[https://www.metrolisboa.pt/viajar/chelas/]",
       "linha": "[Vermelha]",
       "zone_id": "L"
     },
     {
       "stop_id": "CU",
       "stop_name": "Cidade Universitária",
       "stop_lat": "38.7519",
       "stop_lon": "-9.15863",
       "stop_url": "[https://www.metrolisboa.pt/viajar/cidade-universitaria/]",
       "linha": "[Amarela]",
       "zone_id": "L"
     },
     {
       "stop_id": "CM",
       "stop_name": "Colégio Militar/Luz",
       "stop_lat": "38.7533",
       "stop_lon": "-9.18866",
       "stop_url": "[https://www.metrolisboa.pt/viajar/colegio-militar-luz/]",
       "linha": "[Azul]",
       "zone_id": "L"
     },
     {
       "stop_id": "EC",
       "stop_name": "Entre Campos",
       "stop_lat": "38.7479",
       "stop_lon": "-9.14856",
       "stop_url": "[https://www.metrolisboa.pt/viajar/entre-campos/]",
       "linha": "[Amarela]",
       "zone_id": "L"
     },
     {
       "stop_id": "IN",
       "stop_name": "Intendente",
       "stop_lat": "38.7222",
       "stop_lon": "-9.13531",
       "stop_url": "[https://www.metrolisboa.pt/viajar/intendente/]",
       "linha": "[Verde]",
       "zone_id": "L"
     },
     {
       "stop_id": "JZ",
       "stop_name": "Jardim Zoológico",
       "stop_lat": "38.7422",
       "stop_lon": "-9.16872",
       "stop_url": "[https://www.metrolisboa.pt/viajar/jardim-zoologico/]",
       "linha": "[Azul]",
       "zone_id": "L"
     },
     {
       "stop_id": "LA",
       "stop_name": "Laranjeiras",
       "stop_lat": "38.7485",
       "stop_lon": "-9.17243",
       "stop_url": "[https://www.metrolisboa.pt/viajar/laranjeiras/]",
       "linha": "[Azul]",
       "zone_id": "L"
     },
     {
       "stop_id": "LU",
       "stop_name": "Lumiar",
       "stop_lat": "38.7728",
       "stop_lon": "-9.1597",
       "stop_url": "[https://www.metrolisboa.pt/viajar/lumiar/]",
       "linha": "[Amarela]",
       "zone_id": "L"
     },
     {
       "stop_id": "MP",
       "stop_name": "Marquês de Pombal",
       "stop_lat": "38.7249",
       "stop_lon": "-9.15081",
       "stop_url": "[https://www.metrolisboa.pt/viajar/marques-de-pombal-linha-amarela/,https://www.metrolisboa.pt/viajar/marques-de-pombal-linha-azul/]",
       "linha": "[Amarela, Azul]",
       "zone_id": "L"
     },
     {
       "stop_id": "MM",
       "stop_name": "Martim Moniz",
       "stop_lat": "38.7168",
       "stop_lon": "-9.13575",
       "stop_url": "[https://www.metrolisboa.pt/viajar/martim-moniz/]",
       "linha": "[Verde]",
       "zone_id": "L"
     },
     {
       "stop_id": "OD",
       "stop_name": "Odivelas",
       "stop_lat": "38.7932",
       "stop_lon": "-9.17322",
       "stop_url": "[https://www.metrolisboa.pt/viajar/odivelas/]",
       "linha": "[Amarela]",
       "zone_id": "C"
     },
     {
       "stop_id": "OL",
       "stop_name": "Olaias",
       "stop_lat": "38.7392",
       "stop_lon": "-9.12366",
       "stop_url": "[https://www.metrolisboa.pt/viajar/olaias/]",
       "linha": "[Vermelha]",
       "zone_id": "L"
     },
     {
       "stop_id": "OS",
       "stop_name": "Olivais",
       "stop_lat": "38.7613",
       "stop_lon": "-9.11204",
       "stop_url": "[https://www.metrolisboa.pt/viajar/olivais/]",
       "linha": "[Vermelha]",
       "zone_id": "L"
     },
     {
       "stop_id": "OR",
       "stop_name": "Oriente",
       "stop_lat": "38.7678",
       "stop_lon": "-9.09977",
       "stop_url": "[https://www.metrolisboa.pt/viajar/oriente/]",
       "linha": "[Vermelha]",
       "zone_id": "L"
     },
     {
       "stop_id": "PA",
       "stop_name": "Parque",
       "stop_lat": "38.7297",
       "stop_lon": "-9.15028",
       "stop_url": "[https://www.metrolisboa.pt/viajar/parque/]",
       "linha": "[Azul]",
       "zone_id": "L"
     },
     {
       "stop_id": "PI",
       "stop_name": "Picoas",
       "stop_lat": "38.7306",
       "stop_lon": "-9.1465",
       "stop_url": "[https://www.metrolisboa.pt/viajar/picoas/]",
       "linha": "[Amarela]",
       "zone_id": "L"
     },
     {
       "stop_id": "PO",
       "stop_name": "Pontinha",
       "stop_lat": "38.7624",
       "stop_lon": "-9.19693",
       "stop_url": "[https://www.metrolisboa.pt/viajar/pontinha/]",
       "linha": "[Azul]",
       "zone_id": "C"
     },
     {
       "stop_id": "PE",
       "stop_name": "Praça de Espanha",
       "stop_lat": "38.7377",
       "stop_lon": "-9.15845",
       "stop_url": "[https://www.metrolisboa.pt/viajar/praca-de-espanha/]",
       "linha": "[Azul]",
       "zone_id": "L"
     },
     {
       "stop_id": "QC",
       "stop_name": "Quinta das Conchas",
       "stop_lat": "38.7671",
       "stop_lon": "-9.15546",
       "stop_url": "[https://www.metrolisboa.pt/viajar/quinta-das-conchas/]",
       "linha": "[Amarela]",
       "zone_id": "L"
     },
     {
       "stop_id": "RA",
       "stop_name": "Rato",
       "stop_lat": "38.7201",
       "stop_lon": "-9.15411",
       "stop_url": "[https://www.metrolisboa.pt/viajar/rato/]",
       "linha": "[Amarela]",
       "zone_id": "L"
     },
     {
       "stop_id": "RE",
       "stop_name": "Restauradores",
       "stop_lat": "38.7151",
       "stop_lon": "-9.14162",
       "stop_url": "[https://www.metrolisboa.pt/viajar/restauradores/]",
       "linha": "[Azul]",
       "zone_id": "L"
     },
     {
       "stop_id": "RM",
       "stop_name": "Roma",
       "stop_lat": "38.7485",
       "stop_lon": "-9.14135",
       "stop_url": "[https://www.metrolisboa.pt/viajar/roma/]",
       "linha": "[Verde]",
       "zone_id": "L"
     },
     {
       "stop_id": "RO",
       "stop_name": "Rossio",
       "stop_lat": "38.7138",
       "stop_lon": "-9.13896",
       "stop_url": "[https://www.metrolisboa.pt/viajar/rossio/]",
       "linha": "[Verde]",
       "zone_id": "L"
     },
     {
       "stop_id": "SA",
       "stop_name": "Saldanha",
       "stop_lat": "38.7353",
       "stop_lon": "-9.14558",
       "stop_url": "[https://www.metrolisboa.pt/viajar/saldanha-linha-amarela/,https://www.metrolisboa.pt/viajar/saldanha-linha-vermelha/]",
       "linha": "[Amarela, Vermelha]",
       "zone_id": "L"
     },
     {
       "stop_id": "SP",
       "stop_name": "Santa Apolónia",
       "stop_lat": "38.7138",
       "stop_lon": "-9.12256",
       "stop_url": "[https://www.metrolisboa.pt/viajar/santa-apolonia/]",
       "linha": "[Azul]",
       "zone_id": "L"
     },
     {
       "stop_id": "SS",
       "stop_name": "São Sebastião",
       "stop_lat": "38.7348",
       "stop_lon": "-9.15423",
       "stop_url": "[https://www.metrolisboa.pt/viajar/sao-sebastiao-linha-azul/,https://www.metrolisboa.pt/viajar/sao-sebastiao-linha-vermelha/]",
       "linha": "[Azul, Vermelha]",
       "zone_id": "L"
     },
     {
       "stop_id": "SR",
       "stop_name": "Senhor Roubado",
       "stop_lat": "38.7858",
       "stop_lon": "-9.17215",
       "stop_url": "[https://www.metrolisboa.pt/viajar/senhor-roubado/]",
       "linha": "[Amarela]",
       "zone_id": "C"
     },
     {
       "stop_id": "TE",
       "stop_name": "Telheiras",
       "stop_lat": "38.7604",
       "stop_lon": "-9.16606",
       "stop_url": "[https://www.metrolisboa.pt/viajar/telheiras/]",
       "linha": "[Verde]",
       "zone_id": "L"
     },
     {
       "stop_id": "TP",
       "stop_name": "Terreiro do Paço",
       "stop_lat": "38.7072",
       "stop_lon": "-9.13335",
       "stop_url": "[https://www.metrolisboa.pt/viajar/terreiro-do-paco/]",
       "linha": "[Azul]",
       "zone_id": "L"
     },
     {
       "stop_id": "MO",
       "stop_name": "Moscavide",
       "stop_lat": "38.7748",
       "stop_lon": "-9.10266",
       "stop_url": "[https://www.metrolisboa.pt/viajar/moscavide/]",
       "linha": "[Vermelha]",
       "zone_id": "L"
     },
     {
       "stop_id": "EN",
       "stop_name": "Encarnação",
       "stop_lat": "38.775",
       "stop_lon": "-9.11498",
       "stop_url": "[https://www.metrolisboa.pt/viajar/encarnacao/]",
       "linha": "[Vermelha]",
       "zone_id": "L"
     },
     {
       "stop_id": "AP",
       "stop_name": "Aeroporto",
       "stop_lat": "38.7686",
       "stop_lon": "-9.12833",
       "stop_url": "[https://www.metrolisboa.pt/viajar/aeroporto/]",
       "linha": "[Vermelha]",
       "zone_id": "L"
     },
     {
       "stop_id": "RB",
       "stop_name": "Reboleira",
       "stop_lat": "38.7522",
       "stop_lon": "-9.22414",
       "stop_url": "[https://www.metrolisboa.pt/viajar/reboleira/]",
       "linha": "[Azul]",
       "zone_id": "L"
     }
   ],
   "codigo": "200"
 }